{
"type": "FeatureCollection",
"name": "Tanks_Mapping",
"crs": { "type": "name", "properties": { "name": "urn:ogc:def:crs:OGC:1.3:CRS84" } },
"features": [
{ "type": "Feature", "properties": { "id": 1, "fid": 1, "tank_name": "Thimbigua tank", "tank_capacity": null, "tank_type": "Elevated Steel", "tahk_height": null, "tank_status": "Operational", "remarks": null, "latitude": -1.1789507320016175, "longitude": 36.763330036337976, "elevation": 0.0, "mapping_time": "2024-05-23T13:07:06.258", "mapped_by": "harry.lsnr@gmail.com" }, "geometry": { "type": "Point", "coordinates": [ 36.763330036337976, -1.178950732001617, 0.0 ] } },
{ "type": "Feature", "properties": { "id": 2, "fid": 2, "tank_name": "A.C.K Thimbigua tank", "tank_capacity": null, "tank_type": "Masonry", "tahk_height": null, "tank_status": "Operational", "remarks": null, "latitude": -1.1835135755757618, "longitude": 36.764830873406979, "elevation": 1857.3, "mapping_time": "2024-04-30T15:32:45.105", "mapped_by": "harry.lsnr@gmail.com" }, "geometry": { "type": "Point", "coordinates": [ 36.764830873406979, -1.183513575575762, 1857.3 ] } },
{ "type": "Feature", "properties": { "id": 3, "fid": 3, "tank_name": "Kmtc", "tank_capacity": null, "tank_type": "Masonry", "tahk_height": null, "tank_status": "Not-Operational", "remarks": null, "latitude": -1.1760759293616205, "longitude": 36.752997409013815, "elevation": 1914.2, "mapping_time": "2024-04-30T15:32:22.018", "mapped_by": "harry.lsnr@gmail.com" }, "geometry": { "type": "Point", "coordinates": [ 36.752997409013815, -1.176075929361621, 1914.2 ] } },
{ "type": "Feature", "properties": { "id": 4, "fid": 4, "tank_name": "Old borehole elevated tank", "tank_capacity": null, "tank_type": "Elevated Steel", "tahk_height": null, "tank_status": "Operational", "remarks": null, "latitude": -1.1562116666666666, "longitude": 36.748123333333332, "elevation": 1953.7, "mapping_time": "2024-05-23T13:07:09.853", "mapped_by": "harry.lsnr@gmail.com" }, "geometry": { "type": "Point", "coordinates": [ 36.748123333333332, -1.156211666666667, 1953.7 ] } },
{ "type": "Feature", "properties": { "id": 5, "fid": 5, "tank_name": "New Borehole elevated tank", "tank_capacity": null, "tank_type": "Elevated Steel", "tahk_height": null, "tank_status": "Operational", "remarks": null, "latitude": -1.1563716666666668, "longitude": 36.74778, "elevation": 1959.7, "mapping_time": "2024-05-23T13:07:15.896", "mapped_by": "harry.lsnr@gmail.com" }, "geometry": { "type": "Point", "coordinates": [ 36.74778, -1.156371666666667, 1959.7 ] } },
{ "type": "Feature", "properties": { "id": 6, "fid": 6, "tank_name": "Milimani tank Kawaida", "tank_capacity": null, "tank_type": "Masonry", "tahk_height": null, "tank_status": "Operational", "remarks": null, "latitude": -1.1486938051872506, "longitude": 36.751461803518531, "elevation": 1964.1, "mapping_time": "2024-04-17T15:11:28.762", "mapped_by": "harry.lsnr@gmail.com" }, "geometry": { "type": "Point", "coordinates": [ 36.751461803518531, -1.148693805187251, 1964.100000000000136 ] } },
{ "type": "Feature", "properties": { "id": 7, "fid": 7, "tank_name": "Milimani", "tank_capacity": null, "tank_type": "Elavated Plastic", "tahk_height": null, "tank_status": "Not-Operational", "remarks": null, "latitude": -1.1487425931715354, "longitude": 36.751432524843743, "elevation": 1964.1, "mapping_time": "2024-04-17T15:11:32.686", "mapped_by": "harry.lsnr@gmail.com" }, "geometry": { "type": "Point", "coordinates": [ 36.751432524843743, -1.148742593171535, 1964.100000000000136 ] } },
{ "type": "Feature", "properties": { "id": 8, "fid": 8, "tank_name": "Kianjogu tank", "tank_capacity": null, "tank_type": "Elevated Steel", "tahk_height": null, "tank_status": "Not-Operational", "remarks": null, "latitude": -1.1782355382193004, "longitude": 36.723432352188965, "elevation": 0.0, "mapping_time": "2024-04-17T15:13:21.296", "mapped_by": "harry.lsnr@gmail.com" }, "geometry": { "type": "Point", "coordinates": [ 36.723432352188965, -1.1782355382193, 0.0 ] } },
{ "type": "Feature", "properties": { "id": 9, "fid": 9, "tank_name": "Gacharage", "tank_capacity": 48, "tank_type": "Elevated Steel", "tahk_height": null, "tank_status": "Operational", "remarks": null, "latitude": -1.202584192040544, "longitude": 36.76622130547311, "elevation": 1783.835693359375, "mapping_time": "2024-05-23T13:07:43.763", "mapped_by": "harry.lsnr@gmail.com" }, "geometry": { "type": "Point", "coordinates": [ 36.76622130547311, -1.202584192040544, 1783.835693359375 ] } },
{ "type": "Feature", "properties": { "id": 10, "fid": 10, "tank_name": "Ndenderu dispensary", "tank_capacity": 48, "tank_type": "Elevated Steel", "tahk_height": null, "tank_status": "Operational", "remarks": null, "latitude": -1.1901567318559934, "longitude": 36.738347549596568, "elevation": 0.0, "mapping_time": "2024-05-23T13:07:32.046", "mapped_by": "harry.lsnr@gmail.com" }, "geometry": { "type": "Point", "coordinates": [ 36.738347549596568, -1.190156731855993, 0.0 ] } },
{ "type": "Feature", "properties": { "id": 11, "fid": 11, "tank_name": "Gachorue Steel tank", "tank_capacity": null, "tank_type": "Elevated Steel", "tahk_height": null, "tank_status": "Operational", "remarks": null, "latitude": -1.1699896806630827, "longitude": 36.750997309542427, "elevation": 0.0, "mapping_time": "2024-04-30T15:32:04.536", "mapped_by": "harry.lsnr@gmail.com" }, "geometry": { "type": "Point", "coordinates": [ 36.750997309542427, -1.169989680663083, 0.0 ] } },
{ "type": "Feature", "properties": { "id": 12, "fid": 12, "tank_name": "Gachorue Masonry Tank", "tank_capacity": null, "tank_type": "Masonry", "tahk_height": null, "tank_status": "Operational", "remarks": null, "latitude": -1.1701177481567016, "longitude": 36.750939972137637, "elevation": 0.0, "mapping_time": "2024-04-30T15:31:59.794", "mapped_by": "harry.lsnr@gmail.com" }, "geometry": { "type": "Point", "coordinates": [ 36.750939972137637, -1.170117748156702, 0.0 ] } },
{ "type": "Feature", "properties": { "id": 13, "fid": 13, "tank_name": "Gachie Police Post water Kiosk", "tank_capacity": 5, "tank_type": "Elavated Plastic", "tahk_height": null, "tank_status": "Operational", "remarks": null, "latitude": -1.2165787933832326, "longitude": 36.767700630813138, "elevation": 1770.6, "mapping_time": "2024-05-23T13:07:46.400", "mapped_by": "harry.lsnr@gmail.com" }, "geometry": { "type": "Point", "coordinates": [ 36.767700630813138, -1.216578793383233, 0.0 ] } },
{ "type": "Feature", "properties": { "id": 14, "fid": 14, "tank_name": "Kihara", "tank_capacity": 168, "tank_type": "Elevated Steel", "tahk_height": null, "tank_status": "Operational", "remarks": null, "latitude": -1.2161033529701186, "longitude": 36.768213170317296, "elevation": 1781.16064453125, "mapping_time": "2024-05-23T13:08:02.352", "mapped_by": "harry.lsnr@gmail.com" }, "geometry": { "type": "Point", "coordinates": [ 36.768213170317296, -1.216103352970119, 0.0 ] } },
{ "type": "Feature", "properties": { "id": 15, "fid": 15, "tank_name": "Kihara police post", "tank_capacity": null, "tank_type": "Elevated Steel", "tahk_height": 108000.0, "tank_status": "Operational", "remarks": null, "latitude": -1.2161509200996985, "longitude": 36.768337604685136, "elevation": 1776.34619140625, "mapping_time": "2024-05-23T13:08:05.520", "mapped_by": "harry.lsnr@gmail.com" }, "geometry": { "type": "Point", "coordinates": [ 36.768337604685136, -1.216150920099698, 1776.34619140625 ] } },
{ "type": "Feature", "properties": { "id": 16, "fid": 16, "tank_name": "Kwa chief Kihara Tank", "tank_capacity": 10, "tank_type": "Elavated Plastic", "tahk_height": null, "tank_status": "Operational", "remarks": "Not elevated", "latitude": -1.1946066666666666, "longitude": 36.729446666666668, "elevation": 1865.4, "mapping_time": "2024-05-23T13:08:08.066", "mapped_by": "harry.lsnr@gmail.com" }, "geometry": { "type": "Point", "coordinates": [ 36.729446666666668, -1.194606666666667, 1865.399999999999864 ] } },
{ "type": "Feature", "properties": { "id": 17, "fid": 17, "tank_name": "Wanganyu Pry tank", "tank_capacity": null, "tank_type": "Elevated Steel", "tahk_height": null, "tank_status": "Operational", "remarks": null, "latitude": -1.1949749273418611, "longitude": 36.733503301357089, "elevation": 1850.4, "mapping_time": "2024-05-23T13:08:19.392", "mapped_by": "harry.lsnr@gmail.com" }, "geometry": { "type": "Point", "coordinates": [ 36.733503301357089, -1.194974927341861, 1850.399999999999864 ] } },
{ "type": "Feature", "properties": { "id": 18, "fid": 18, "tank_name": "Karura AP Post", "tank_capacity": 150, "tank_type": "Masonry", "tahk_height": null, "tank_status": "Operational", "remarks": null, "latitude": -1.1936915014084304, "longitude": 36.728897405371313, "elevation": 0.0, "mapping_time": "2024-04-29T14:21:31.690", "mapped_by": "Harrison" }, "geometry": { "type": "Point", "coordinates": [ 36.728897405371313, -1.19369150140843, 0.0 ] } },
{ "type": "Feature", "properties": { "id": 19, "fid": 19, "tank_name": "Karura Pry Tanks", "tank_capacity": 10, "tank_type": "Elavated Plastic", "tahk_height": null, "tank_status": "Operational", "remarks": "Two 5m3 each", "latitude": -1.1915614185857761, "longitude": 36.727985091400654, "elevation": 0.0, "mapping_time": "2024-04-29T14:40:26.438", "mapped_by": "Harrison" }, "geometry": { "type": "Point", "coordinates": [ 36.727985091400654, -1.191561418585776, 0.0 ] } },
{ "type": "Feature", "properties": { "id": 20, "fid": 20, "tank_name": "Kawaida primary tank", "tank_capacity": 48, "tank_type": "Elevated Steel", "tahk_height": null, "tank_status": "Operational", "remarks": null, "latitude": -1.1405594606189708, "longitude": 36.758769091263161, "elevation": 0.0, "mapping_time": "2024-05-08T14:23:01.234", "mapped_by": "Harrison" }, "geometry": { "type": "Point", "coordinates": [ 36.758769091263161, -1.140559460618971, 0.0 ] } },
{ "type": "Feature", "properties": { "id": 21, "fid": 21, "tank_name": "Broomhill", "tank_capacity": null, "tank_type": "Masonry", "tahk_height": null, "tank_status": "Not-Operational", "remarks": null, "latitude": -1.140794813909888, "longitude": 36.754406630501073, "elevation": 0.0, "mapping_time": "2024-05-09T13:56:44.632", "mapped_by": "Harrison" }, "geometry": { "type": "Point", "coordinates": [ 36.754406630501073, -1.140794813909888, 0.0 ] } },
{ "type": "Feature", "properties": { "id": 22, "fid": 22, "tank_name": "Broomhill", "tank_capacity": 10, "tank_type": "Elavated Plastic", "tahk_height": null, "tank_status": "Operational", "remarks": null, "latitude": -1.1408525188446623, "longitude": 36.754392371161288, "elevation": 0.0, "mapping_time": "2024-05-09T13:57:30.950", "mapped_by": "Harrison" }, "geometry": { "type": "Point", "coordinates": [ 36.754392371161288, -1.140852518844662, 0.0 ] } },
{ "type": "Feature", "properties": { "id": 23, "fid": 23, "tank_name": "Ite dam tank", "tank_capacity": 50, "tank_type": "Elevated Steel", "tahk_height": null, "tank_status": "Not-Operational", "remarks": null, "latitude": -1.1612253046552665, "longitude": 36.756882972451805, "elevation": 0.0, "mapping_time": "2024-05-23T13:08:22.132", "mapped_by": "harry.lsnr@gmail.com" }, "geometry": { "type": "Point", "coordinates": [ 36.756882972451805, -1.161225304655267, 0.0 ] } },
{ "type": "Feature", "properties": { "id": 24, "fid": 24, "tank_name": "Ite dam 2 tank", "tank_capacity": 50, "tank_type": "Elevated Steel", "tahk_height": null, "tank_status": "Not-Operational", "remarks": null, "latitude": -1.1611643154141729, "longitude": 36.756969693751181, "elevation": 0.0, "mapping_time": "2024-05-23T13:08:36.526", "mapped_by": "harry.lsnr@gmail.com" }, "geometry": { "type": "Point", "coordinates": [ 36.756969693751181, -1.161164315414173, 0.0 ] } },
{ "type": "Feature", "properties": { "id": 25, "fid": 25, "tank_name": "Gaithuma", "tank_capacity": 150, "tank_type": "Masonry", "tahk_height": null, "tank_status": "Operational", "remarks": null, "latitude": -1.174873614112435, "longitude": 36.779280132302077, "elevation": 0.0, "mapping_time": "2024-05-23T13:08:39.132", "mapped_by": "harry.lsnr@gmail.com" }, "geometry": { "type": "Point", "coordinates": [ 36.779280132302077, -1.174873614112435, 0.0 ] } },
{ "type": "Feature", "properties": { "id": 26, "fid": 26, "tank_name": "Canon tank", "tank_capacity": 60, "tank_type": "Elevated Steel", "tahk_height": null, "tank_status": "Operational", "remarks": null, "latitude": -1.1720023736951628, "longitude": 36.783003264259399, "elevation": 0.0, "mapping_time": "2024-05-23T13:08:49.444", "mapped_by": "harry.lsnr@gmail.com" }, "geometry": { "type": "Point", "coordinates": [ 36.783003264259399, -1.172002373695163, 0.0 ] } },
{ "type": "Feature", "properties": { "id": 27, "fid": 27, "tank_name": "Gathanga primarh", "tank_capacity": 150, "tank_type": "Masonry", "tahk_height": null, "tank_status": "Operational", "remarks": null, "latitude": -1.18866211, "longitude": 36.79089036, "elevation": 1753.02392578125, "mapping_time": "2024-05-23T13:08:55.327", "mapped_by": "harry.lsnr@gmail.com" }, "geometry": { "type": "Point", "coordinates": [ 36.79089036, -1.18866211, 1753.02392578125 ] } },
{ "type": "Feature", "properties": { "id": 28, "fid": 28, "tank_name": "Waguthu primary B ", "tank_capacity": 10, "tank_type": "Masonry", "tahk_height": null, "tank_status": "Not-Operational", "remarks": null, "latitude": -1.18858277, "longitude": 36.79091319, "elevation": 1749.89501953125, "mapping_time": "2024-05-23T13:08:58.957", "mapped_by": "harry.lsnr@gmail.com" }, "geometry": { "type": "Point", "coordinates": [ 36.79091319, -1.18858277, 1749.89501953125 ] } },
{ "type": "Feature", "properties": { "id": 29, "fid": 29, "tank_name": "Thairi tank", "tank_capacity": 200, "tank_type": "Masonry", "tahk_height": null, "tank_status": "Operational", "remarks": null, "latitude": -1.1696067408168309, "longitude": 36.773758747847175, "elevation": 0.0, "mapping_time": "2024-05-23T13:09:02.799", "mapped_by": "harry.lsnr@gmail.com" }, "geometry": { "type": "Point", "coordinates": [ 36.773758747847175, -1.169606740816831, 0.0 ] } },
{ "type": "Feature", "properties": { "id": 30, "fid": 30, "tank_name": "Gathanga dispensary", "tank_capacity": null, "tank_type": "Masonry", "tahk_height": null, "tank_status": "Operational", "remarks": null, "latitude": -1.1915050175932105, "longitude": 36.793338989078606, "elevation": 0.0, "mapping_time": "2024-05-23T13:09:44.568", "mapped_by": "harry.lsnr@gmail.com" }, "geometry": { "type": "Point", "coordinates": [ 36.793338989078606, -1.19150501759321, 0.0 ] } }
]
}
